time(millisecond),datetime(utc),latitude,longitude,height_above_takeoff(feet),height_above_ground_at_drone_location(feet),ground_elevation_at_drone_location(feet),altitude_above_seaLevel(feet),height_sonar(feet),speed(mph),distance(feet),mileage(feet),satellites,gpslevel,voltage(v),max_altitude(feet),max_ascent(feet),max_speed(mph),max_distance(feet), xSpeed(mph), ySpeed(mph), zSpeed(mph), compass_heading(degrees), pitch(degrees), roll(degrees),isPhoto,isVideo,rc_elevator,rc_aileron,rc_throttle,rc_rudder,rc_elevator(percent),rc_aileron(percent),rc_throttle(percent),rc_rudder(percent),gimbal_heading(degrees),gimbal_pitch(degrees),gimbal_roll(degrees),battery_percent,voltageCell1,voltageCell2,voltageCell3,voltageCell4,voltageCell5,voltageCell6,current(A),battery_temperature(f),altitude(feet),ascent(feet),flycStateRaw,flycState,message
0,2022-05-13 16:28:11,-34.4376624556441,-59.0521548140894,0,Available with any HD 360 subscription,Available with any HD 360 subscription,89.378347348296,0.656168,0,0,0,16,10,0,89.378347348296,0,0,0,0,0,0,239.2, 1.4, 1,0,0,364,364,364,1684,-100,-100,-100,100,242.3,-1.2,0,98,,,,,,,0,78.08,89.378347348296,0,6,P-GPS,
100,2022-05-13 16:28:11,-34.4376624549303,-59.0521548142398,0,,,89.378347348296,0.656168,0,0.00026431759376,0.00026431759376,16,10,0,89.378347348296,0,0,0.00026431759376,0,0,0,239.2, 1.4, 1,0,0,364,364,364,1684,-100,-100,-100,100,242.3,-1.2,0,98,,,,,,,0,78.08,89.378347348296,0,41,Motors_Started,
200,2022-05-13 16:28:12,-34.4376624532005,-59.0521548144991,0,,,89.378347348296,0.656168,0,0.00090003939888,0.000900262496,16,10,0,89.378347348296,0,0,0.00090003939888,0,0,0,239.2, 1.4, 1,0,0,364,364,364,1684,-100,-100,-100,100,242.3,-1.2,0,98,,,,,,,0,78.08,89.378347348296,0,41,Motors_Started,
300,2022-05-13 16:28:12,-34.4376624557136,-59.0521548142255,0,,,89.378347348296,0.656168,0,4.8187665584E-5,0.0018208662,16,10,0,89.378347348296,0,0,0.00090003939888,0,0,0,239.2, 1.4, 1,0,0,364,364,364,1684,-100,-100,-100,100,242.3,-1.2,0,98,,,,,,,0,78.08,89.378347348296,0,41,Motors_Started,"Setting new Return-To-Home altitude to 100m (328 ft). Data Recorder File Index is 20. Setting new Maximum Flight Altitude to 120m (394 ft)"
400,2022-05-13 16:28:12,-34.4376624490296,-59.0521548136571,0,,,89.378347348296,0.656168,0,0.00241680782012,0.0042655185092,16,10,0,89.378347348296,0,0,0.00241680782012,0,0,0,239.2, 1.4, 1,0,0,364,364,364,1684,-100,-100,-100,100,242.3,-1.2,0,98,,,,,,,0,78.08,89.378347348296,0,41,Motors_Started,
500,2022-05-13 16:28:12,-34.4376624531227,-59.052154814254,0,,,89.378347348296,0.656168,0,0.00092127955704,0.0057696524156,16,10,0,89.378347348296,0,0,0.00241680782012,0,0,0,239.2, 1.4, 1,0,0,364,364,364,1684,-100,-100,-100,100,242.3,-1.2,0,98,,,,,,,0,78.08,89.378347348296,0,41,Motors_Started,
600,2022-05-13 16:28:12,-34.4376624571454,-59.052154815351,0,,,89.378347348296,0.656168,0,0.00066644031004,0.0072739831724,16,10,0,89.378347348296,0,0,0.00241680782012,0,0,0,239.2, 1.4, 1,0,0,364,364,364,1684,-100,-100,-100,100,242.3,-1.2,0,98,,,,,,,0,78.08,89.378347348296,0,41,Motors_Started,
700,2022-05-13 16:28:12,-34.4376624611003,-59.0521548142845,0,,,89.378347348296,0.656168,0,0.00199155518184,0.0087521984428,16,10,0,89.378347348296,0,0,0.00241680782012,0,0,0,239.2, 1.4, 1,0,0,364,364,364,1684,-100,-100,-100,100,242.3,-1.2,0,98,,,,,,,0,78.08,89.378347348296,0,41,Motors_Started,
800,2022-05-13 16:28:12,-34.4376624686137,-59.0521548135028,0,,,89.378347348296,0.656168,0,0.004735236372,0.0115035436752,16,10,0,89.378347348296,0,0,0.004735236372,0,0,0,239.2, 1.4, 1,0,0,364,364,364,1684,-100,-100,-100,100,242.3,-1.2,0,98,,,,,,,0,78.08,89.378347348296,0,41,Motors_Started,
900,2022-05-13 16:28:12,-34.437662475353,-59.0521548211405,0,,,89.378347348296,0.656168,0,0.0074972771428,0.0148691933892,16,10,25.236,89.378347348296,0,0,0.0074972771428,0,0,0,239.2, 1.4, 1,0,0,364,364,364,1684,-100,-100,-100,100,242.3,-1.2,0,98,,,,,,,1.236,78.08,89.378347348296,0,41,Motors_Started,
1000,2022-05-13 16:28:12,-34.4376624827235,-59.0521548284722,0,,,89.378347348296,0.656168,0,0.010786253626,0.0183475071488,16,10,25.236,89.378347348296,0,0,0.010786253626,0,0,0,239.2, 1.3, 1,0,0,364,364,364,1684,-100,-100,-100,100,242.3,-1.2,0,98,,,,,,,1.236,78.08,89.378347348296,0,41,Motors_Started,
1100,2022-05-13 16:28:13,-34.4376624781972,-59.0521548367044,0,,,89.378347348296,0.656168,0,0.010677821864,0.02132463979,16,10,25.236,89.378347348296,0,0,0.010786253626,0,0,0,239.2, 1.3, 1,0,0,364,364,364,1684,-100,-100,-100,100,242.3,-1.2,0,98,,,,,,,1.236,78.08,89.378347348296,0,41,Motors_Started,
1200,2022-05-13 16:28:13,-34.4376624829281,-59.0521548415796,0,,,89.378347348296,0.656168,0,0.0129429138,0.023589895768,16,10,25.236,89.378347348296,0,0,0.0129429138,0,0,0,239.2, 1.4, 1,0,0,364,364,364,1684,-100,-100,-100,100,242.3,-1.2,0,98,,,,,,,1.236,78.08,89.378347348296,0,41,Motors_Started,
1300,2022-05-13 16:28:13,-34.4376624911713,-59.0521548412794,0,,,89.378347348296,0.656168,0,0.015328248522,0.0265987869404,16,10,25.236,89.378347348296,0,0,0.015328248522,0,0,0,239.2, 1.3, 1,0,0,364,364,364,1684,-100,-100,-100,100,242.4,-1.2,0,98,,,,,,,1.236,78.08,89.378347348296,0,41,Motors_Started,
1400,2022-05-13 16:28:13,-34.437662500368,-59.0521548360382,0,,,89.378347348296,0.656168,0,0.0176034126368,0.0303063329908,16,10,25.236,89.378347348296,0,0,0.0176034126368,0,0,0,239.2, 1.3, 1,0,0,364,364,364,1684,-100,-100,-100,100,242.4,-1.2,0,98,,,,,,,1.236,78.08,89.378347348296,0,41,Motors_Started,
1500,2022-05-13 16:28:13,-34.4376625038855,-59.0521548397375,0,,,89.378347348296,0.656168,0,0.0192185373604,0.0320051847512,16,10,25.236,89.378347348296,0,0,0.0192185373604,0,0,0,239.2, 1.3, 1,0,0,364,398,431,1630,-100,-95,-90,92,242.4,-1.2,0,98,,,,,,,1.236,78.08,89.378347348296,0,41,Motors_Started,
1600,2022-05-13 16:28:13,-34.437662504804,-59.052154844812,0,,,89.378347348296,0.656168,0,0.0201782486772,0.033568570628,16,10,25.236,89.378347348296,0,0,0.0201782486772,0,0,0,239.2, 1.3, 1,0,0,631,814,670,1300,-60,-32,-54,42,242.4,-1.2,0,98,,,,,,,1.236,78.08,89.378347348296,0,41,Motors_Started,
1700,2022-05-13 16:28:13,-34.4376625048598,-59.0521548496114,0,,,89.378347348296,0.656168,0,0.0208968838708,0.035012796396,16,10,25.236,89.378347348296,0,0,0.0208968838708,0,0,0,239.2, 1.3, 1,0,0,815,1024,904,1024,-32,0,-18,0,242.4,-1.2,0,98,,,,,,,1.236,78.08,89.378347348296,0,41,Motors_Started,
1800,2022-05-13 16:28:13,-34.4376624848067,-59.052154855067,0,,,89.378347348296,0.656168,0,0.0162864506524,0.042511156216,17,10,25.236,89.378347348296,0,0,0.0208968838708,0,0,0,239.3, 1.3, 1,0,0,907,1024,1024,1024,-18,0,0,0,242.3,-1.2,0,98,,,,,,,1.236,78.08,89.378347348296,0,41,Motors_Started,
1900,2022-05-13 16:28:13,-34.4376624872113,-59.052154860559,0,,,89.378347348296,0.656168,0,0.0181155189524,0.044382219268,17,10,25.242,89.378347348296,0,0,0.0208968838708,0,0,0,239.2, 1.3, 1,0,0,1024,1024,1024,1024,0,0,0,0,242.3,-1.2,0,98,,,,,,,5.162,78.08,89.378347348296,0,41,Motors_Started,
2000,2022-05-13 16:28:13,-34.4376624890808,-59.0521548665235,0,,,89.378347348296,0.656168,0,0.0199439967012,0.046302166836,17,10,25.242,89.378347348296,0,0,0.0208968838708,0,0,0,239.2, 1.3, 1,0,0,1024,1024,1024,1024,0,0,0,0,242.4,-1.2,0,98,,,,,,,5.162,78.08,89.378347348296,0,41,Motors_Started,
2100,2022-05-13 16:28:14,-34.4376624818236,-59.0521548671123,0,,,89.378347348296,0.656168,0,0.0185955058444,0.048955710228,17,10,25.242,89.378347348296,0,0,0.0208968838708,0,0,0,239.2, 1.3, 1,0,0,1024,1024,1024,1024,0,0,0,0,242.4,-1.2,0,98,,,,,,,5.162,78.08,89.378347348296,0,10,Assisted_Takeoff,
2200,2022-05-13 16:28:14,-34.4376624880575,-59.0521548698367,0,,,89.378347348296,0.656168,0,0.020524278872,0.051373361224,17,10,25.242,89.378347348296,0,0,0.0208968838708,0,0,0,239.2, 1.3, 1,0,0,1024,1024,1024,1024,0,0,0,0,242.4,-1.2,0,98,,,,,,,5.162,78.08,89.378347348296,0,10,Assisted_Takeoff,
2300,2022-05-13 16:28:14,-34.4376624916427,-59.0521548708918,0,,,89.378347348296,0.656168,0,0.0215557093512,0.052719489876,17,10,25.242,89.378347348296,0,0,0.0215557093512,0,0,0,239.2, 1.3, 1,0,0,1024,1024,1024,1024,0,0,0,0,242.4,-1.2,0,98,,,,,,,5.162,78.08,89.378347348296,0,10,Assisted_Takeoff,
2400,2022-05-13 16:28:14,-34.437662494988,-59.052154873304,0,,,89.378347348296,0.656168,0,0.0228809718608,0.054139437428,17,10,25.242,89.378347348296,0,0,0.0228809718608,0,0,0,239.3, 1.3, 1,0,0,1024,1024,1024,1024,0,0,0,0,242.4,-1.2,0,98,,,,,,,5.162,78.08,89.378347348296,0,10,Assisted_Takeoff,
2500,2022-05-13 16:28:14,-34.4376624504668,-59.0521548528311,0,,,89.378347348296,0.656168,0,0.011809711664,0.071512141396,17,10,25.242,89.378347348296,0,0,0.0228809718608,0,0,0,239.3, 1.3, 1,0,0,1024,1024,1024,1024,0,0,0,0,242.4,-1.2,0,98,,,,,,,5.162,78.08,89.378347348296,0,10,Assisted_Takeoff,
2600,2022-05-13 16:28:14,-34.4376624330786,-59.0521548505181,0,,,89.378347348296,0.656168,0,0.0137091211736,0.077894031364,17,10,25.242,89.378347348296,0,0,0.0228809718608,0,0,0,239.3, 1.3, 1,0,0,1024,1024,1024,1024,0,0,0,0,242.3,-1.2,0,98,,,,,,,5.162,78.08,89.378347348296,0,10,Assisted_Takeoff,
2700,2022-05-13 16:28:14,-34.4376624295218,-59.0521548540798,0,,,89.378347348296,0.656168,0,0.0153504598088,0.079577102284,17,10,25.242,89.378347348296,0,0,0.0228809718608,0,0,0,239.3, 1.3, 1,0,0,1024,1024,1024,1024,0,0,0,0,242.3,-1.2,0,98,,,,,,,5.162,78.08,89.378347348296,0,10,Assisted_Takeoff,
2800,2022-05-13 16:28:14,-34.4376624165724,-59.0521548546751,0,,,89.378347348296,0.656168,0,0.0187712276348,0.084305120808,17,10,25.242,89.378347348296,0,0,0.0228809718608,0,0,0,239.3, 1.3, 1,0,0,1024,1024,1024,1024,0,0,0,0,242.3,-1.2,0,98,,,,,,,5.162,78.08,89.378347348296,0,10,Assisted_Takeoff,
2900,2022-05-13 16:28:14,-34.4376624185584,-59.0521548559038,0,,,89.378347348296,0.656168,0,0.0184768378616,0.085118769128,17,10,24.936,89.378347348296,0,0,0.0228809718608,0,0,0,239.3, 1.3, 1,0,0,1024,1024,1024,1024,0,0,0,0,242.3,-1.2,0,98,,,,,,,3.774,78.08,89.378347348296,0,10,Assisted_Takeoff,
3000,2022-05-13 16:28:14,-34.4376624222896,-59.0521548588745,0,,,89.378347348296,0.656168,0,0.0181576121296,0.086747378104,17,10,24.936,89.378347348296,0,0,0.0228809718608,0,0,0,239.3, 1.3, 1,0,0,1024,1024,1024,1024,0,0,0,0,242.4,-1.2,0,98,,,,,,,3.774,78.08,89.378347348296,0,10,Assisted_Takeoff,
3100,2022-05-13 16:28:15,-34.437662430375,-59.0521548654113,0,,,89.378347348296,0.656168,0,0.0179857617304,0.090292981892,17,10,24.936,89.378347348296,0,0,0.0228809718608,0,0,0,239.2, 1.3, 1,0,0,1024,1024,1024,1024,0,0,0,0,242.4,-1.2,0,98,,,,,,,3.774,78.08,89.378347348296,0,10,Assisted_Takeoff,
3200,2022-05-13 16:28:15,-34.4376624335702,-59.0521548683684,0,,,89.378347348296,0.656168,0,0.0182105976956,0.091759517372,17,10,24.936,89.378347348296,0,0,0.0228809718608,0,0,0,239.2, 1.3, 1,0,0,1024,1024,1024,1024,0,0,0,0,242.4,-1.2,0,98,,,,,,,3.774,78.08,89.378347348296,0,10,Assisted_Takeoff,
3300,2022-05-13 16:28:15,-34.4376624366423,-59.0521548741831,0,,,89.378347348296,0.656168,0,0.0193660767352,0.093837273344,17,10,24.936,89.378347348296,0,0,0.0228809718608,0,0,0,239.3, 1.3, 1,0,0,1024,1024,1024,1024,0,0,0,0,242.3,-1.2,0,98,,,,,,,3.774,78.08,89.378347348296,0,10,Assisted_Takeoff,
3400,2022-05-13 16:28:15,-34.43766243955,-59.0521548807986,0,,,89.378347348296,0.656168,0,0.0209144691732,0.096092850844,17,10,24.936,89.378347348296,0,0,0.0228809718608,0,0,0,239.3, 1.3, 1,0,0,1024,1024,1024,1024,0,0,0,0,242.3,-1.2,0,98,,,,,,,3.774,78.08,89.378347348296,0,10,Assisted_Takeoff,
3500,2022-05-13 16:28:15,-34.4376624416779,-59.0521548758529,0,,,89.378347348296,0.656168,0,0.0192709323752,0.097771656672,17,10,24.936,89.378347348296,0,0,0.0228809718608,0,0,0,239.3, 1.3, 1,0,0,1024,1024,1024,1024,0,0,0,0,242.4,-1.2,0,98,,,,,,,3.774,78.08,89.378347348296,0,10,Assisted_Takeoff,
3600,2022-05-13 16:28:15,-34.4376624568599,-59.0521548784453,0,,,89.378347348296,0.656168,0,0.0193702105936,0.103365160788,17,10,24.936,89.378347348296,0,0,0.0228809718608,0,0,0,239.2, 1.3, 1,0,0,1024,1024,1024,1024,0,0,0,0,242.4,-1.2,0,98,,,,,,,3.774,78.08,89.378347348296,0,10,Assisted_Takeoff,
3700,2022-05-13 16:28:15,-34.4376624705479,-59.052154880291,0,,,89.378347348296,0.656168,0,0.0206493116844,0.108390095332,17,10,24.936,89.378347348296,0,0,0.0228809718608,0,0,0,239.3, 1.3, 1,0,0,1024,1024,1024,1024,0,0,0,0,242.3,-1.2,0,98,,,,,,,3.774,78.08,89.378347348296,0,10,Assisted_Takeoff,
3800,2022-05-13 16:28:15,-34.4376624846327,-59.0521548840417,0,,,89.378347348296,0.656168,0,0.0235568905176,0.11365157844,17,10,24.936,89.378347348296,0,0,0.0235568905176,0,0,0,239.3, 1.3, 1,0,0,1024,1024,1024,1024,0,0,0,0,242.3,-1.2,0,98,,,,,,,3.774,78.08,89.378347348296,0,10,Assisted_Takeoff,
3900,2022-05-13 16:28:15,-34.4376624918187,-59.0521548708549,0,,,89.378347348296,0.656168,0,0.0215860899296,0.118407484104,17,10,25.116,89.378347348296,0,0,0.0235568905176,0,0,0,239.2, 1.3, 1,0,0,1024,1024,1024,1024,0,0,0,0,242.3,-1.2,0,98,,,,,,,2.692,78.08,89.378347348296,0,10,Assisted_Takeoff,
4000,2022-05-13 16:28:15,-34.4376625082824,-59.0521548741747,0,,,89.378347348296,0.656168,0,0.0263765756472,0.124496723144,17,10,25.116,89.378347348296,0,0,0.0263765756472,0,0,0,239.2, 1.3, 1,0,0,1024,1024,1024,1024,0,0,0,0,242.4,-1.2,0,98,,,,,,,2.692,78.08,89.378347348296,0,10,Assisted_Takeoff,
4100,2022-05-13 16:28:15,-34.4376625203727,-59.0521548788168,0,,,89.378347348296,0.656168,0,0.0306116807696,0.129123691796,17,10,25.116,89.378347348296,0,0,0.0306116807696,0,0,0,239.2, 1.3, 1,0,0,1024,1024,1024,1024,0,0,0,0,242.3,-1.2,0,98,,,,,,,2.692,78.08,89.378347348296,0,10,Assisted_Takeoff,
4200,2022-05-13 16:28:16,-34.4376625228637,-59.0521548773323,0,,,89.378347348296,0.656168,0,0.031042323828,0.130136487104,17,10,25.116,89.378347348296,0,0,0.031042323828,0,0,0,239.2, 1.3, 1,0,0,1024,1024,1024,1024,0,0,0,0,242.3,-1.2,0,98,,,,,,,2.692,78.08,89.378347348296,0,10,Assisted_Takeoff,
4300,2022-05-13 16:28:16,-34.4376625316389,-59.0521548840427,0,,,89.378347348296,0.656168,0,0.034811680904,0.133921592212,17,10,25.116,89.378347348296,0,0,0.034811680904,0,0,0,239.2, 1.3, 1,0,0,1024,1024,1024,1024,0,0,0,0,242.3,-1.2,0,98,,,,,,,2.692,78.08,89.378347348296,0,10,Assisted_Takeoff,
4400,2022-05-13 16:28:16,-34.4376625425793,-59.0521548930577,0,,,89.378347348296,0.656168,0,0.039631891032,0.138747707852,17,10,25.116,89.378347348296,0,0,0.039631891032,0,0,0,239.2, 1.3, 1,0,0,1024,1024,1024,1024,0,0,0,0,242.4,-1.2,0,98,,,,,,,2.692,78.08,89.378347348296,0,10,Assisted_Takeoff,
4500,2022-05-13 16:28:16,-34.4376625498798,-59.0521548988592,0,,,89.378347348296,0.656168,0,0.042810696908,0.14193241924,17,10,25.116,89.378347348296,0,0,0.042810696908,0,0,0,239.2, 1.3, 1,0,0,1024,1024,1024,1024,0,0,0,0,242.3,-1.2,0,98,,,,,,,2.692,78.08,89.378347348296,0,10,Assisted_Takeoff,
4600,2022-05-13 16:28:16,-34.4376625289214,-59.0521548918513,0,,,89.378347348296,0.656168,0,0.035528544444,0.149864506108,17,10,25.116,89.378347348296,0,0,0.042810696908,0,0,0,239.2, 1.2, 1,0,0,1024,1024,1024,1024,0,0,0,0,242.3,-1.2,0,98,,,,,,,2.692,78.08,89.378347348296,0,10,Assisted_Takeoff,
4700,2022-05-13 16:28:16,-34.4376625377463,-59.0521549025681,0,,,89.378347348296,0.656168,0,0.040076444852,0.154421592868,17,10,25.116,89.378347348296,0,0,0.042810696908,0,0,0,239.2, 1.2, 1,0,0,1024,1024,1024,1024,0,0,0,0,242.4,-1.2,0,98,,,,,,,2.692,78.08,89.378347348296,0,10,Assisted_Takeoff,
4800,2022-05-13 16:28:16,-34.4376625487437,-59.0521549145632,0,,,89.378347348296,0.656168,0,0.045473426652,0.159818246584,17,10,25.116,89.378347348296,0,0,0.045473426652,0,0,0,239.2, 1.2, 1,0,0,1024,1024,1024,1024,0,0,0,0,242.3,-1.2,0,98,,,,,,,2.692,78.08,89.378347348296,0,10,Assisted_Takeoff,
4900,2022-05-13 16:28:16,-34.4376625315877,-59.0521549052256,0,,,89.378347348296,0.656168,0,0.038984253216,0.166679467276,17,10,25.158,89.378347348296,0,0,0.045473426652,0,0,0,239.2, 1.2, 1,0,0,1024,1024,1024,1024,0,0,0,0,242.3,-1.2,0,98,,,,,,,2.168,78.08,89.378347348296,0,10,Assisted_Takeoff,
5000,2022-05-13 16:28:16,-34.4376625408225,-59.0521549138727,0,,,89.378347348296,0.656168,0,0.043212599808,0.170936357176,17,10,25.158,89.378347348296,0,0,0.045473426652,0,0,0,239.2, 1.2, 1,0,0,1024,1024,1024,1024,0,0,0,0,242.4,-1.2,0,98,,,,,,,2.168,78.08,89.378347348296,0,10,Assisted_Takeoff,
5100,2022-05-13 16:28:17,-34.437662550731,-59.0521549207058,0,,,89.378347348296,0.656168,0,0.0472522981,0.175095478044,17,10,25.158,89.378347348296,0,0,0.0472522981,0,0,0,239.2, 1.2, 1,0,0,1024,1024,1024,1024,0,0,0,0,242.4,-1.2,0,98,,,,,,,2.168,78.08,89.378347348296,0,10,Assisted_Takeoff,
5200,2022-05-13 16:28:17,-34.4376625610908,-59.0521549274463,0,,,89.378347348296,0.656168,0,0.051416012144,0.17938484826,17,10,25.158,89.378347348296,0,0,0.051416012144,0,0,0,239.2, 1.2, 1,0,0,1024,1024,1024,1024,0,0,0,0,242.3,-1.2,0,98,,,,,,,2.168,78.08,89.378347348296,0,10,Assisted_Takeoff,
5300,2022-05-13 16:28:17,-34.4376625358996,-59.0521549069851,0,,,89.378347348296,0.656168,0,0.040481628592,0.190447512656,17,10,25.158,89.378347348296,0,0,0.051416012144,0,0,0,239.2, 1.2, 1,0,0,1024,1024,1024,1024,0,0,0,0,242.3,-1.2,0,98,,,,,,,2.168,78.08,89.378347348296,0,10,Assisted_Takeoff,
5400,2022-05-13 16:28:17,-34.4376625433801,-59.0521549138464,0,,,89.378347348296,0.656168,0,0.04388287542,0.19386975686,17,10,25.158,89.378347348296,0,0,0.051416012144,0,0,0,239.2, 1.2, 1,0,0,1024,1024,1024,1024,0,0,0,0,242.4,-1.2,0,98,,,,,,,2.168,78.08,89.378347348296,0,10,Assisted_Takeoff,
5500,2022-05-13 16:28:17,-34.4376625461775,-59.0521549210421,0,,,89.378347348296,0.656168,0,0.04611712746,0.196263457724,17,10,25.158,89.378347348296,0,0,0.051416012144,0,0,0,239.2, 1.2, 1,0,0,1024,1024,1024,1024,0,0,0,0,242.3,-1.2,0,98,,,,,,,2.168,78.08,89.378347348296,0,10,Assisted_Takeoff,
5600,2022-05-13 16:28:17,-34.4376625251865,-59.052154917233,0,,,89.378347348296,0.656168,0,0.040087927792,0.20400755246,17,10,25.158,89.378347348296,0,0,0.051416012144,0,0,0,239.2, 1.2, 1,0,0,1024,1024,1024,1024,0,0,0,0,242.3,-1.2,0,98,,,,,,,2.168,78.08,89.378347348296,0,10,Assisted_Takeoff,
5700,2022-05-13 16:28:17,-34.4376625306955,-59.0521549257307,0,,,89.378347348296,0.656168,0,0.043339568316,0.207259849152,17,10,25.158,89.378347348296,0,0,0.051416012144,0,0,0,239.2, 1.2, 1,0,0,1024,1024,1024,1024,0,0,0,0,242.4,-1.2,0,98,,,,,,,2.168,78.08,89.378347348296,0,10,Assisted_Takeoff,
5800,2022-05-13 16:28:17,-34.4376625388187,-59.0521549339133,0,,,89.378347348296,0.656168,0,0.047126641928,0.211112867648,17,10,25.158,89.378347348296,0,0,0.051416012144,0,0,0,239.2, 1.2, 1,0,0,1024,1024,1024,1024,0,0,0,0,242.3,-1.2,0,98,,,,,,,2.168,78.08,89.378347348296,0,10,Assisted_Takeoff,
5900,2022-05-13 16:28:17,-34.4376625496231,-59.0521549379345,0,,,89.378347348296,0.656168,0,0.050640093484,0.215236555444,17,10,25.14,89.378347348296,0,0,0.051416012144,0,0,0,239.2, 1.2, 1,0,0,1024,1024,1024,1024,0,0,0,0,242.3,-1.2,0,98,,,,,,,2.176,78.08,89.378347348296,0,10,Assisted_Takeoff,
6000,2022-05-13 16:28:17,-34.4376625333778,-59.0521549214082,0,,,89.378347348296,0.656168,0,0.042979004,0.222973432332,17,10,25.14,89.378347348296,0,0,0.051416012144,0,0,0,239.2, 1.2, 1,0,0,1024,1024,1024,1024,0,0,0,0,242.3,-1.2,0,98,,,,,,,2.176,78.08,89.378347348296,0,10,Assisted_Takeoff,
6100,2022-05-13 16:28:18,-34.4376625405886,-59.0521549290828,0,,,89.378347348296,0.656168,0,0.046452429308,0.226474088612,17,10,25.14,89.378347348296,0,0,0.051416012144,0,0,0,239.2, 1.2, 1,0,0,1024,1024,1024,1024,0,0,0,0,242.4,-1.2,0,98,,,,,,,2.176,78.08,89.378347348296,0,10,Assisted_Takeoff,
6200,2022-05-13 16:28:18,-34.4376625483685,-59.0521549352475,0,,,89.378347348296,0.656168,0,0.049735565896,0.229864836752,17,10,25.14,89.378347348296,0,0,0.051416012144,0,0,0,239.2, 1.2, 1,0,0,1024,1024,1024,1024,0,0,0,0,242.3,-1.2,0,98,,,,,,,2.176,78.08,89.378347348296,0,10,Assisted_Takeoff,
6300,2022-05-13 16:28:18,-34.4376625209189,-59.0521549106698,0,,,89.378347348296,0.656168,0,0.037573492016,0.2423146403,17,10,25.14,89.378347348296,0,0,0.051416012144,0,0,0,239.2, 1.2, 1,0,0,1024,1024,1024,1024,0,0,0,0,242.3,-1.2,0,98,,,,,,,2.176,78.08,89.378347348296,0,10,Assisted_Takeoff,
6400,2022-05-13 16:28:18,-34.4376625295495,-59.052154916004,0,,,89.378347348296,0.656168,0,0.040835303144,0.245849089232,17,10,25.14,89.378347348296,0,0,0.051416012144,0,0,0,239.2, 1.2, 1,0,0,1024,1024,1024,1024,0,0,0,0,242.3,-1.2,0,98,,,,,,,2.176,78.08,89.378347348296,0,10,Assisted_Takeoff,
6500,2022-05-13 16:28:18,-34.4376625442555,-59.052154924432,0,,,89.378347348296,0.656168,0,0.046342521168,0.251783472624,17,10,25.14,89.378347348296,0,0,0.051416012144,0,0,0,239.2, 1.2, 1,0,0,1024,1024,1024,1024,0,0,0,0,242.4,-1.2,0,98,,,,,,,2.176,78.08,89.378347348296,0,10,Assisted_Takeoff,
6600,2022-05-13 16:28:18,-34.4376625610693,-59.0521549336561,0,,,89.378347348296,0.656168,0,0.052668308772,0.258516740556,17,10,25.14,89.378347348296,0,0,0.052668308772,0,0,0,239.2, 1.2, 1,0,0,1024,1024,1024,1024,0,0,0,0,242.3,-1.2,0,98,,,,,,,2.176,78.08,89.378347348296,0,10,Assisted_Takeoff,
6700,2022-05-13 16:28:18,-34.4376625573465,-59.0521549193115,0,,,89.378347348296,0.656168,0,0.048778544868,0.263041675084,17,10,25.14,89.378347348296,0,0,0.052668308772,0,0,0,239.2, 1.2, 1,0,0,1024,1024,1024,1024,0,0,0,0,242.3,-1.2,0,98,,,,,,,2.176,78.08,89.378347348296,0,10,Assisted_Takeoff,
6800,2022-05-13 16:28:18,-34.4376625735729,-59.0521549285386,0,,,89.378347348296,0.656168,0,0.05511155032,0.269580717288,17,10,25.14,89.378347348296,0,0,0.05511155032,0,0,0,239.2, 1.2, 1,0,0,1024,1024,1024,1024,0,0,0,0,242.3,-1.2,0,98,,,,,,,2.176,78.08,89.378347348296,0,10,Assisted_Takeoff,
6900,2022-05-13 16:28:18,-34.4376625870893,-59.0521549371895,0,,,89.378347348296,0.656168,0,0.0605971148,0.275157161036,17,10,25.14,89.378347348296,0,0,0.0605971148,0,0,0,239.2, 1.2, 1,0,0,1024,1024,1024,1024,0,0,0,0,242.4,-1.2,0,98,,,,,,,2.176,78.08,89.378347348296,0,10,Assisted_Takeoff,
7000,2022-05-13 16:28:18,-34.4376625886053,-59.0521549365015,0,,,89.378347348296,0.656168,0,0.06091043502,0.275747712236,17,10,25.14,89.378347348296,0,0,0.06091043502,0,0,0,239.2, 1.2, 1,0,0,1024,1024,1030,1024,0,0,1,0,242.3,-1.2,0,98,,,,,,,2.176,78.08,89.378347348296,0,10,Assisted_Takeoff,
7100,2022-05-13 16:28:18,-34.4376625964292,-59.0521549480992,0,,,89.378347348296,0.656168,0,0.065302823612,0.280256242564,17,10,25.14,89.378347348296,0,0,0.065302823612,0,0,0,239.2, 1.2, 1,0,0,1024,1024,1046,1024,0,0,3,0,242.3,-1.2,0,98,,,,,,,2.176,78.08,89.378347348296,0,10,Assisted_Takeoff,
7200,2022-05-13 16:28:19,-34.4376626033114,-59.0521549600786,0,,,89.378347348296,0.656168,0,0.069515750256,0.284649287324,17,10,25.14,89.378347348296,0,0,0.069515750256,0,0,0,239.2, 1.2, 1,0,0,1024,1024,1060,1024,0,0,5,0,242.4,-1.2,0,98,,,,,,,2.176,78.08,89.378347348296,0,10,Assisted_Takeoff,
7300,2022-05-13 16:28:19,-34.437662606428,-59.052154966675,0,,,89.378347348296,0.656168,0,0.071655842188,0.286936688972,17,10,25.14,89.378347348296,0,0,0.071655842188,0,0,0,239.2, 1.2, 1,0,0,1024,1024,1117,1024,0,0,14,0,242.3,-1.2,0,98,,,,,,,2.176,78.08,89.378347348296,0,10,Assisted_Takeoff,
7400,2022-05-13 16:28:19,-34.4376625660787,-59.0521549472482,0,,,89.378347348296,0.656168,0,0.056823492632,0.302776256408,17,10,25.14,89.378347348296,0,0,0.071655842188,0,0,0,239.2, 1.2, 1,0,0,1024,1024,1024,1024,0,0,0,0,242.3,-1.2,0,98,,,,,,,2.176,78.08,89.378347348296,0,10,Assisted_Takeoff,
7500,2022-05-13 16:28:19,-34.4376625702682,-59.0521549513608,0,,,89.378347348296,0.656168,0,0.058780513692,0.304743119988,17,10,25.14,89.378347348296,0,0,0.071655842188,0,0,0,239.2, 1.2, 1,0,0,1024,1024,1024,1024,0,0,0,0,242.4,-1.2,0,98,,,,,,,2.176,78.08,89.378347348296,0,10,Assisted_Takeoff,
7600,2022-05-13 16:28:19,-34.4376625745027,-59.0521549526069,0,,,89.378347348296,0.656168,0,0.060148623972,0.306332686968,17,10,25.14,89.378347348296,0,0,0.071655842188,0,0,0,239.2, 1.2, 1,0,0,1024,1024,1024,1024,0,0,0,0,242.4,-1.2,0,98,,,,,,,2.176,78.08,89.378347348296,0,10,Assisted_Takeoff,
7700,2022-05-13 16:28:19,-34.4376625504493,-59.0521549324092,0,,,89.378347348296,0.656168,0,0.0496391092,0.317007556076,17,10,25.14,89.378347348296,0,0,0.071655842188,0,0,0,239.2, 1.2, 1,0,0,1024,1024,1024,1024,0,0,0,0,242.4,-1.2,0,98,,,,,,,2.176,78.08,89.378347348296,0,10,Assisted_Takeoff,
7800,2022-05-13 16:28:19,-34.437662560919,-59.0521549420684,0,,,89.378347348296,0.656168,0,0.054390093604,0.32180775308,17,10,25.14,89.378347348296,0,0,0.071655842188,0,0,0,239.2, 1.2, 1,0,0,1024,1024,1024,1024,0,0,0,0,242.4,-1.2,0,98,,,,,,,2.176,78.08,89.378347348296,0,10,Assisted_Takeoff,
7900,2022-05-13 16:28:19,-34.4376625674224,-59.0521549479702,0,,,89.378347348296,0.656168,0,0.057324804984,0.324771335852,17,10,25.146,89.378347348296,0,0,0.071655842188,0,0,0,239.2, 1.2, 1,0,0,1024,1024,1054,1024,0,0,5,0,242.4,-1.2,0,98,,,,,,,2.188,78.08,89.378347348296,0,10,Assisted_Takeoff,
8000,2022-05-13 16:28:19,-34.4376625765488,-59.0521549559989,0,,,89.378347348296,0.656168,0,0.061394687004,0.32888452496,17,10,25.146,89.378347348296,0,0,0.071655842188,0,0,0,239.2, 1.2, 1,0,0,1024,1024,1107,1024,0,0,13,0,242.3,-1.2,0,98,,,,,,,2.188,78.08,89.378347348296,0,10,Assisted_Takeoff,
8100,2022-05-13 16:28:19,-34.4376625415795,-59.0521549301158,0,,,89.378347348296,0.656168,0,0.046925198352,0.343832032,17,10,25.146,89.378347348296,0,0,0.071655842188,0,0,0,239.2, 1.2, 1,0,0,1024,1024,1119,1024,0,0,14,0,242.3,-1.2,0,98,,,,,,,2.188,78.08,89.378347348296,0,10,Assisted_Takeoff,
8200,2022-05-13 16:28:20,-34.437662546337,-59.0521549359421,0,,,89.378347348296,0.656168,0,0.049389437276,0.34629922368,17,10,25.146,89.378347348296,0,0,0.071655842188,0,0,0,239.1, 1.2, 1,0,0,1024,1024,1119,1024,0,0,14,0,242.4,-1.2,0,98,,,,,,,2.188,78.08,89.378347348296,0,10,Assisted_Takeoff,
8300,2022-05-13 16:28:20,-34.4376625528078,-59.0521549409607,0,,,89.378347348296,0.656168,0,0.052097442612,0.34910434188,17,10,25.146,89.378347348296,0,0,0.071655842188,0,0,0,239.2, 1.2, 1,0,0,1024,1024,1150,1024,0,0,19,0,242.3,-1.2,0,98,,,,,,,2.188,78.08,89.378347348296,0,10,Assisted_Takeoff,
8400,2022-05-13 16:28:20,-34.437662540563,-59.0521549312296,0,,,89.378347348296,0.656168,0,0.046929463444,0.3544455494,17,10,25.146,89.378347348296,0,0,0.071655842188,0,0,0,239.2, 1.2, 1,0,0,1024,1024,1140,1024,0,0,18,0,242.4,-1.2,0,98,,,,,,,2.188,78.08,89.378347348296,0,10,Assisted_Takeoff,
8500,2022-05-13 16:28:20,-34.4376625509749,-59.0521549310379,0,,,89.378347348296,0.656168,0,0.049478676124,0.35824476212,17,10,25.146,89.378347348296,0,0,0.071655842188,0,0,0,239.2, 1.2, 1,0,0,1024,1024,1125,1024,0,0,15,0,242.3,-1.2,0,98,,,,,,,2.188,78.08,89.378347348296,0,10,Assisted_Takeoff,
8600,2022-05-13 16:28:20,-34.4376625628892,-59.0521549339713,0,,,89.378347348296,0.656168,0,0.053219489892,0.3626804578,17,10,25.146,89.378347348296,0,0,0.071655842188,0,0,0,239.2, 1.3, 1,0,0,1024,1024,1123,1024,0,0,15,0,242.3,-1.2,0,98,,,,,,,2.188,78.08,89.378347348296,0,10,Assisted_Takeoff,
8700,2022-05-13 16:28:20,-34.4376625666064,-59.0521549365698,0,,,89.378347348296,0.656168,0,0.054747705164,0.36424541848,17,10,25.146,89.378347348296,0,0,0.071655842188,0,0,0,239.2, 1.3, 1,0,0,1024,1024,1122,1024,0,0,15,0,242.3,-1.2,0,98,,,,,,,2.188,78.08,89.378347348296,0,10,Assisted_Takeoff,
8800,2022-05-13 16:28:20,-34.4376625373804,-59.052154909348,0,,,89.378347348296,0.656168,0,0.041363518384,0.3776903008,17,10,25.146,89.378347348296,0,0,0.071655842188,0,0,0,239.2, 1.4, 1,0,0,1024,1024,1112,1024,0,0,13,0,242.3,-1.2,0,98,,,,,,,2.188,78.08,89.378347348296,0,10,Assisted_Takeoff,
8900,2022-05-13 16:28:20,-34.437662540363,-59.0521549173118,0,,,89.378347348296,0.656168,0,0.043819555208,0.38032153448,17,10,25.14,89.378347348296,0,0,0.071655842188,0,0,0,239.2, 1.5, 1,0,0,1024,1024,1114,1024,0,0,14,0,242.3,-1.2,0,98,,,,,,,2.304,78.08,89.378347348296,0,10,Assisted_Takeoff,
9000,2022-05-13 16:28:20,-34.4376625372048,-59.052154919492,0,,,89.378347348296,0.656168,0,0.043490486956,0.38164699384,17,10,25.14,89.378347348296,0,0,0.071655842188,0,0,0,239.2, 2, 1.5,0,0,1024,1024,1107,1024,0,0,13,0,242.3,-1.2,0,98,,,,,,,2.304,78.08,89.378347348296,0,10,Assisted_Takeoff,
9100,2022-05-13 16:28:21,-34.4376624734853,-59.0521548825137,0,,,89.378347348296,0.656168,0,0.0215937999036,0.40742127288,17,10,25.14,89.378347348296,0,0,0.071655842188,0,0,-0.223694,239, 2.8, 2.1,0,0,1024,1024,1109,1024,0,0,13,0,242.3,-1.2,0,98,,,,,,,2.304,78.08,89.378347348296,0,10,Assisted_Takeoff,
9200,2022-05-13 16:28:21,-34.4376624009426,-59.0521548549342,0,,,89.378347348296,0.656168,0,0.0234386162356,0.43516077508,17,10,25.14,89.378347348296,0,0,0.071655842188,0,0,-0.671082,238.8, 3, 2,0,0,1024,1024,1107,1024,0,0,13,0,242.4,-1.2,0,98,,,,,,,2.304,78.08,89.378347348296,0,6,P-GPS,
9300,2022-05-13 16:28:21,-34.4376622915986,-59.0521548086924,0,,,89.378347348296,0.984252,0.223694,0.059874017664,0.4774114326,17,10,25.14,89.378347348296,0,0.223694,0.071655842188,0.223694,0,-0.894776,238.6, 1.9, 1,0,0,1024,1024,1082,1024,0,0,9,0,242.3,-1.2,0,98,,,,,,,2.304,78.08,89.378347348296,0,6,P-GPS,
9400,2022-05-13 16:28:21,-34.4376621626358,-59.0521547494357,0.328084,,,89.706431348296,0.984252,0.223694,0.10865978038,0.52772967568,17,10,25.14,89.706431348296,0.328084,0.223694,0.10865978038,0.223694,0,-1.11847,238.5, 0.3, -0.2,0,0,1024,1024,1080,1024,0,0,8,0,242.3,-1.2,0,98,,,,,,,2.304,78.08,89.706431348296,0.328084,6,P-GPS,
9500,2022-05-13 16:28:21,-34.4376620132474,-59.0521546639116,0.328084,,,89.706431348296,1.312336,0.223694,0.16761483476,0.58800198732,17,10,25.14,89.706431348296,0.328084,0.223694,0.16761483476,0.223694,0,-1.11847,238.5, -0.9, -1,0,0,1024,1024,1085,1024,0,0,9,0,242.3,-1.2,0,98,,,,,,,2.304,78.08,89.706431348296,0.328084,6,P-GPS,
9600,2022-05-13 16:28:21,-34.4376619457143,-59.0521546201998,0.656168,,,90.034515348296,1.312336,0,0.194980977368,0.61593177824,16,10,25.14,90.034515348296,0.656168,0.223694,0.194980977368,0,0,-0.894776,238.5, -1.3, -1.2,0,0,1024,1024,1098,1024,0,0,11,0,242.3,-1.2,0,98,,,,,,,2.304,78.08,90.034515348296,0.656168,6,P-GPS,
9700,2022-05-13 16:28:21,-34.4376619144447,-59.0521545915017,0.656168,,,90.034515348296,1.64042,0,0.208506568352,0.63024280232,16,10,25.14,90.034515348296,0.656168,0.223694,0.208506568352,0,0,-0.894776,238.7, -0.7, -0.4,0,0,1024,1024,1106,1024,0,0,12,0,242.3,-1.2,0,98,,,,,,,2.304,78.08,90.034515348296,0.656168,6,P-GPS,
9800,2022-05-13 16:28:21,-34.437661895377,-59.0521545600554,0.984252,,,90.362599348296,1.64042,0,0.21823819596,0.64198492868,17,10,25.14,90.362599348296,0.984252,0.223694,0.21823819596,0,0,-0.671082,238.8, 0.1, 0.3,0,0,1024,1024,1110,1024,0,0,13,0,242.4,-1.2,0,98,,,,,,,2.304,78.08,90.362599348296,0.984252,6,P-GPS,
9900,2022-05-13 16:28:21,-34.4376619122279,-59.0521545440806,0.984252,,,90.362599348296,1.64042,0,0.21426673914,0.64979004704,17,10,25.14,90.362599348296,0.984252,0.223694,0.21823819596,0,0,-0.671082,238.8, 0.6, 0.7,0,0,1024,1024,1143,1024,0,0,18,0,242.3,-1.2,0,98,,,,,,,4.854,78.08,90.362599348296,0.984252,6,P-GPS,
10000,2022-05-13 16:28:21,-34.4376619389303,-59.052154533843,0.984252,,,90.362599348296,1.968504,0,0.206523628656,0.6600065828,17,10,25.14,90.362599348296,0.984252,0.223694,0.21823819596,0,0,-0.671082,238.8, 0.7, 1,0,0,1024,1024,1148,1024,0,0,19,0,242.3,-1.2,0,98,,,,,,,4.854,78.08,90.362599348296,0.984252,6,P-GPS,
10100,2022-05-13 16:28:22,-34.4376619714229,-59.0521545274213,1.312336,,,90.690683348296,1.968504,0,0.196602040412,0.67201773804,17,10,25.14,90.690683348296,1.312336,0.223694,0.21823819596,0,0,-0.447388,238.8, 0.6, 1.4,0,0,1024,1024,1150,1024,0,0,19,0,242.4,-1.2,0,98,,,,,,,4.854,78.08,90.690683348296,1.312336,6,P-GPS,
10200,2022-05-13 16:28:22,-34.4376619729129,-59.0521544816106,1.312336,,,90.690683348296,1.968504,0,0.202555452676,0.68581367024,17,10,25.14,90.690683348296,1.312336,0.223694,0.21823819596,0,0,-0.447388,238.7, 0.5, 1.5,0,0,1024,1024,1154,1024,0,0,20,0,242.3,-1.2,0,98,,,,,,,4.854,78.08,90.690683348296,1.312336,6,P-GPS,
10300,2022-05-13 16:28:22,-34.4376619894125,-59.0521544789406,1.312336,,,90.690683348296,1.968504,0,0.197751974832,0.69188650508,17,10,25.14,90.690683348296,1.312336,0.223694,0.21823819596,0,0,-0.447388,238.7, 0.6, 1.2,0,0,1024,1024,1159,1024,0,0,20,0,242.3,-1.2,0,98,,,,,,,4.854,78.08,90.690683348296,1.312336,6,P-GPS,
10400,2022-05-13 16:28:22,-34.4376620020847,-59.0521544759177,1.64042,,,91.018767348296,2.296588,0,0.194264441912,0.69660107216,17,10,25.14,91.018767348296,1.64042,0.223694,0.21823819596,0,0,-0.671082,238.7, 0.7, 0.9,0,0,1024,1024,1169,1024,0,0,22,0,242.3,-1.2,0,98,,,,,,,4.854,78.08,91.018767348296,1.64042,6,P-GPS,
10500,2022-05-13 16:28:22,-34.437661968264,-59.052154456712,1.64042,,,91.018767348296,2.296588,0,0.2078084056,0.71022640068,17,10,25.14,91.018767348296,1.64042,0.223694,0.21823819596,0,0,-0.671082,238.8, 0.5, 0.9,0,0,1024,1024,1175,1024,0,0,23,0,242.3,-1.2,0,98,,,,,,,4.854,78.08,91.018767348296,1.64042,6,P-GPS,
10600,2022-05-13 16:28:22,-34.4376619881704,-59.0521544779217,1.64042,,,91.018767348296,2.624672,0,0.198298234692,0.71989503616,17,10,25.14,91.018767348296,1.64042,0.223694,0.21823819596,0,0,-0.671082,238.8, 0.3, 0.8,0,0,1024,1024,1183,1024,0,0,24,0,242.3,-1.2,0,98,,,,,,,4.854,78.08,91.018767348296,1.64042,6,P-GPS,
10700,2022-05-13 16:28:22,-34.4376620154121,-59.0521544886843,1.968504,,,91.346851348296,2.624672,0,0.188111554576,0.7303477924,17,10,25.14,91.346851348296,1.968504,0.223694,0.21823819596,0,0,-0.671082,238.7, 0.4, 0.9,0,0,1024,1024,1206,1024,0,0,28,0,242.3,-1.2,0,98,,,,,,,4.854,78.08,91.346851348296,1.968504,6,P-GPS,
10800,2022-05-13 16:28:22,-34.4376620522322,-59.0521545076361,1.968504,,,91.346851348296,2.624672,0,0.173685701096,0.74494096872,16,10,25.14,91.346851348296,1.968504,0.223694,0.21823819596,0,0,-0.894776,238.7, 0.7, 1.1,0,0,1024,1024,1202,1024,0,0,27,0,242.3,-1.2,0,98,,,,,,,4.854,78.08,91.346851348296,1.968504,6,P-GPS,
10900,2022-05-13 16:28:22,-34.4376620345188,-59.0521545195532,1.968504,,,91.346851348296,2.952756,0,0.177376318012,0.75233270124,16,10,25.05,91.346851348296,1.968504,0.223694,0.21823819596,0,0,-0.894776,238.6, 0.9, 0.9,0,0,1024,1024,1201,1024,0,0,27,0,242.3,-1.2,0,98,,,,,,,13.798,78.08,91.346851348296,1.968504,6,P-GPS,
11000,2022-05-13 16:28:22,-34.437662071033,-59.0521545632705,2.296588,,,91.674935348296,2.952756,0,0.1593339946,0.77105645512,16,10,25.05,91.674935348296,2.296588,0.223694,0.21823819596,0,0,-1.11847,238.6, 1, 0.9,0,0,1024,1024,1203,1024,0,0,27,0,242.3,-1.2,0,98,,,,,,,13.798,78.08,91.674935348296,2.296588,6,P-GPS,
11100,2022-05-13 16:28:23,-34.4376621087341,-59.0521545974106,2.624672,,,92.003019348296,3.28084,0,0.142376316892,0.78822181,16,10,25.05,92.003019348296,2.624672,0.223694,0.21823819596,0,0,-1.342164,238.6, 1, 1.1,0,0,1024,1024,1205,1024,0,0,27,0,242.3,-1.2,0,98,,,,,,,13.798,78.08,92.003019348296,2.624672,6,P-GPS,
11200,2022-05-13 16:28:23,-34.4376621145834,-59.0521546113431,2.624672,,,92.003019348296,3.608924,0,0.138586618608,0.79292653456,17,10,25.05,92.003019348296,2.624672,0.223694,0.21823819596,0,0,-1.342164,238.5, 1.1, 1.1,0,0,1024,1024,1212,1024,0,0,28,0,242.3,-1.2,0,98,,,,,,,13.798,78.08,92.003019348296,2.624672,6,P-GPS,
11300,2022-05-13 16:28:23,-34.4376621601537,-59.0521546466086,2.952756,,,92.331103348296,3.608924,0,0.119006893572,0.81265094464,17,10,25.05,92.331103348296,2.952756,0.223694,0.21823819596,0,0,-1.342164,238.5, 1.2, 1.2,0,0,1024,1024,1211,1024,0,0,28,0,242.3,-1.2,0,98,,,,,,,13.798,78.08,92.331103348296,2.952756,6,P-GPS,
11400,2022-05-13 16:28:23,-34.4376622127409,-59.0521546791304,3.28084,,,92.659187348296,3.937008,0,0.097484583172,0.83418965924,16,10,25.05,92.659187348296,3.28084,0.223694,0.21823819596,0,0,-1.565858,238.5, 1.2, 1.5,0,0,1024,1024,1210,1024,0,0,28,0,242.3,-1.2,0,98,,,,,,,13.798,78.08,92.659187348296,3.28084,6,P-GPS,
11500,2022-05-13 16:28:23,-34.4376622573264,-59.0521546923933,3.28084,,,92.659187348296,4.265092,0,0.081094818868,0.85093834744,16,10,25.05,92.659187348296,3.28084,0.223694,0.21823819596,0,0,-1.565858,238.5, 1.2, 1.5,0,0,1024,1024,1210,1024,0,0,28,0,242.3,-1.2,0,98,,,,,,,13.798,78.08,92.659187348296,3.28084,6,P-GPS,
11600,2022-05-13 16:28:23,-34.4376622779384,-59.0521546666545,3.608924,,,92.987271348296,4.265092,0,0.07856135422,0.86173559188,16,10,25.05,92.987271348296,3.608924,0.223694,0.21823819596,0,0,-1.565858,238.5, 1.2, 1.5,0,0,1024,1024,1219,1024,0,0,30,0,242.3,-1.2,0,98,,,,,,,13.798,78.08,92.987271348296,3.608924,6,P-GPS,
11700,2022-05-13 16:28:23,-34.4376623214985,-59.0521546805033,3.937008,,,93.315355348296,4.593176,0,0.063333991528,0.87816275776,16,10,25.05,93.315355348296,3.937008,0.223694,0.21823819596,0,0,-1.565858,238.5, 1.3, 1.4,0,0,1024,1024,1235,1024,0,0,32,0,242.3,-1.2,0,98,,,,,,,13.798,78.08,93.315355348296,3.937008,6,P-GPS,
11800,2022-05-13 16:28:23,-34.4376623663133,-59.052154693583,4.265092,,,93.643439348296,4.92126,0,0.048755907072,0.89498362444,16,10,25.05,93.643439348296,4.265092,0.223694,0.21823819596,0,0,-1.565858,238.6, 1.3, 1.5,0,0,1024,1024,1286,1024,0,0,40,0,242.3,-1.2,0,98,,,,,,,13.798,78.08,93.643439348296,4.265092,6,P-GPS,
11900,2022-05-13 16:28:23,-34.4376623838514,-59.0521546863601,4.265092,,,93.643439348296,5.249344,0,0.046511484428,0.901738874,16,10,24.114,93.643439348296,4.265092,0.223694,0.21823819596,0,0,-1.789552,238.7, 1.2, 1.8,0,0,1024,1024,1282,1024,0,0,39,0,242.3,-1.2,0,98,,,,,,,16.032,78.08,93.643439348296,4.265092,6,P-GPS,
12000,2022-05-13 16:28:23,-34.4376624223821,-59.0521547003916,4.593176,,,93.971523348296,5.577428,0,0.03630085418,0.91641735216,16,10,24.114,93.971523348296,4.593176,0.223694,0.21823819596,0,0,-2.013246,238.7, 1.2, 1.9,0,0,1024,1024,1271,1024,0,0,37,0,242.3,-1.2,0,98,,,,,,,16.032,78.08,93.971523348296,4.593176,6,P-GPS,
12100,2022-05-13 16:28:24,-34.4376624569675,-59.0521547072458,4.92126,,,94.299607348296,5.905512,0,0.032153544336,0.92920278564,16,10,24.114,94.299607348296,4.92126,0.223694,0.21823819596,0,0,-2.23694,238.7, 1.2, 1.8,0,0,1024,1024,1268,1024,0,0,37,0,242.3,-1.2,0,98,,,,,,,16.032,78.08,94.299607348296,4.92126,6,P-GPS,
12200,2022-05-13 16:28:24,-34.4376624883203,-59.0521547155165,5.249344,,,94.627691348296,6.233596,0,0.0319674878996,0.9409121036,16,10,24.114,94.627691348296,5.249344,0.223694,0.21823819596,0,0,-2.23694,238.7, 1.1, 1.6,0,0,1024,1024,1263,1024,0,0,36,0,242.3,-1.2,0,98,,,,,,,16.032,78.08,94.627691348296,5.249344,6,P-GPS,
12300,2022-05-13 16:28:24,-34.4376625705394,-59.052154727685,5.577428,,,94.955775348296,6.56168,0,0.049327757484,0.97113192084,16,10,24.114,94.955775348296,5.577428,0.223694,0.21823819596,0,0,-2.460634,238.8, 0.9, 1.4,0,0,1024,1024,1260,1024,0,0,36,0,242.4,-1.2,0,98,,,,,,,16.032,78.08,94.955775348296,5.577428,6,P-GPS,
12400,2022-05-13 16:28:24,-34.4376626448372,-59.0521547684015,5.905512,,,95.283859348296,6.889764,0,0.070382548184,1.00087929712,16,10,24.114,95.283859348296,5.905512,0.223694,0.21823819596,0,0,-2.460634,238.8, 0.9, 1.4,0,0,1024,1024,1255,1024,0,0,35,0,242.3,-1.2,0,98,,,,,,,16.032,78.08,95.283859348296,5.905512,6,P-GPS,
12500,2022-05-13 16:28:24,-34.4376627038688,-59.0521548071601,6.233596,,,95.611943348296,7.217848,0,0.090588585576,1.02537076772,16,10,24.114,95.611943348296,6.233596,0.223694,0.21823819596,0,0,-2.460634,238.8, 1.1, 1.5,0,0,1024,1024,1253,1024,0,0,35,0,242.3,-1.2,0,98,,,,,,,16.032,78.08,95.611943348296,6.233596,6,P-GPS,
12600,2022-05-13 16:28:24,-34.4376627628178,-59.0521548370992,6.889764,,,96.268111348296,7.545932,0,0.112285764748,1.0486876976,17,10,24.114,96.268111348296,6.889764,0.223694,0.21823819596,0,0,-2.460634,238.7, 1.4, 1.6,0,0,1024,1024,1253,1024,0,0,35,0,242.3,-1.2,0,98,,,,,,,16.032,78.08,96.268111348296,6.889764,6,P-GPS,
12700,2022-05-13 16:28:24,-34.4376628090301,-59.0521548774792,7.217848,,,96.596195348296,7.874016,0,0.130335962176,1.069471819,17,10,24.114,96.596195348296,7.217848,0.223694,0.21823819596,0,0,-2.460634,238.7, 1.5, 1.7,0,0,1024,1024,1252,1024,0,0,35,0,242.3,-1.2,0,98,,,,,,,16.032,78.08,96.596195348296,7.217848,6,P-GPS,
12800,2022-05-13 16:28:24,-34.437662852661,-59.0521549232376,7.545932,,,96.924279348296,8.530184,0,0.148528219976,1.0905184076,17,10,24.114,96.924279348296,7.545932,0.223694,0.21823819596,0,0,-2.23694,238.6, 1.6, 1.8,0,0,1024,1024,1251,1024,0,0,34,0,242.3,-1.2,0,98,,,,,,,16.032,78.08,96.924279348296,7.545932,6,P-GPS,
12900,2022-05-13 16:28:24,-34.4376628726118,-59.0521549514998,7.874016,,,97.252363348296,8.858268,0,0.15764928326,1.10171263368,17,10,24.048,97.252363348296,7.874016,0.223694,0.21823819596,0,0,-2.23694,238.6, 1.5, 1.6,0,0,1024,1024,1249,1024,0,0,34,0,242.3,-1.2,0,98,,,,,,,16.836,78.08,97.252363348296,7.874016,6,P-GPS,
13000,2022-05-13 16:28:24,-34.4376628578793,-59.0521549506275,8.2021,,,97.580447348296,9.186352,0,0.152397970756,1.10709649212,17,10,24.048,97.580447348296,8.2021,0.223694,0.21823819596,0,0,-2.23694,238.6, 1.6, 1.4,0,0,1024,1024,1256,1024,0,0,35,0,242.3,-1.2,0,98,,,,,,,16.836,78.08,97.580447348296,8.2021,6,P-GPS,
13100,2022-05-13 16:28:25,-34.4376628657157,-59.0521549820744,8.530184,,,97.908531348296,9.514436,0,0.157922577232,1.11698166304,17,10,24.048,97.908531348296,8.530184,0.223694,0.21823819596,0,0,-2.23694,238.6, 1.6, 1.2,0,0,1024,1024,1255,1024,0,0,35,0,242.3,-1.2,0,98,,,,,,,16.836,78.08,97.908531348296,8.530184,6,P-GPS,
13200,2022-05-13 16:28:25,-34.4376628755666,-59.0521550205201,8.858268,,,98.236615348296,9.84252,0,0.165321855684,1.12909452432,17,10,24.048,98.236615348296,8.858268,0.223694,0.21823819596,0,0,-2.23694,238.6, 1.7, 1.2,0,0,1024,1024,1254,1024,0,0,35,0,242.3,-1.2,0,98,,,,,,,16.836,78.08,98.236615348296,8.858268,6,P-GPS,
13300,2022-05-13 16:28:25,-34.4376628219515,-59.0521550100002,9.186352,,,98.564699348296,10.170604,0,0.146070870816,1.14891079792,17,10,24.048,98.564699348296,9.186352,0.223694,0.21823819596,0,0,-2.23694,238.6, 1.8, 1.1,0,0,1024,1024,1254,1024,0,0,35,0,242.3,-1.2,0,98,,,,,,,16.836,78.08,98.564699348296,9.186352,6,P-GPS,
13400,2022-05-13 16:28:25,-34.4376628176183,-59.0521550418164,9.514436,,,98.892783348296,10.498688,0,0.148785437832,1.1586122418,17,10,24.048,98.892783348296,9.514436,0.223694,0.21823819596,0,0,-2.23694,238.7, 1.9, 1.1,0,0,1024,1024,1254,1024,0,0,35,0,242.3,-1.2,0,98,,,,,,,16.836,78.08,98.892783348296,9.514436,6,P-GPS,
13500,2022-05-13 16:28:25,-34.4376628195799,-59.052155062143,9.84252,,,99.220867348296,10.826772,0,0.15232283952,1.16477037848,17,10,24.048,99.220867348296,9.84252,0.223694,0.21823819596,0,0,-2.23694,238.8, 1.9, 1.2,0,0,1024,1024,1253,1024,0,0,35,0,242.3,-1.2,0,98,,,,,,,16.836,78.08,99.220867348296,9.84252,6,P-GPS,
13600,2022-05-13 16:28:25,-34.437662823656,-59.0521550794265,10.170604,,,99.548951348296,11.154856,0,0.15621391576,1.17018048364,17,10,24.048,99.548951348296,10.170604,0.223694,0.21823819596,0,0,-2.23694,238.8, 1.9, 1.1,0,0,1024,1024,1250,1024,0,0,34,0,242.3,-1.2,0,98,,,,,,,16.836,78.08,99.548951348296,10.170604,6,P-GPS,
13700,2022-05-13 16:28:25,-34.4376627676085,-59.052155050182,10.498688,,,99.877035348296,11.48294,0,0.134171264136,1.19244098304,17,10,24.048,99.877035348296,10.498688,0.223694,0.21823819596,0,0,-2.23694,238.9, 1.9, 1,0,0,1024,1024,1250,1024,0,0,34,0,242.3,-1.2,0,98,,,,,,,16.836,78.08,99.877035348296,10.498688,6,P-GPS,
13800,2022-05-13 16:28:25,-34.4376627613085,-59.0521550570463,10.826772,,,100.2051193483,11.811024,0,0.13334810138,1.19553153432,17,10,24.048,100.2051193483,10.826772,0.223694,0.21823819596,0,0,-2.23694,238.8, 1.7, 0.9,0,0,1024,1024,1248,1024,0,0,34,0,242.3,-1.2,0,98,,,,,,,16.836,78.08,100.2051193483,10.826772,6,P-GPS,
13900,2022-05-13 16:28:25,-34.4376627627808,-59.0521550489799,11.154856,,,100.5332033483,12.139108,0,0.132487208964,1.19801841104,17,10,23.928,100.5332033483,11.154856,0.223694,0.21823819596,0,0,-2.23694,238.8, 1.7, 1.1,0,0,1024,1024,1247,1024,0,0,34,0,242.3,-1.2,0,98,,,,,,,16.79,78.08,100.5332033483,11.154856,6,P-GPS,
14000,2022-05-13 16:28:25,-34.4376627518976,-59.052155016349,11.48294,,,100.8612873483,12.467192,0,0.124044623392,1.20860896256,17,10,23.928,100.8612873483,11.48294,0.223694,0.21823819596,0,0,-2.23694,238.7, 1.7, 1.5,0,0,1024,1024,1247,1024,0,0,34,0,242.3,-1.2,0,98,,,,,,,16.79,78.08,100.8612873483,11.48294,6,P-GPS,
14100,2022-05-13 16:28:25,-34.4376627607496,-59.0521549991954,11.811024,,,101.1893713483,12.795276,0,0.1244750696,1.2146982016,17,10,23.928,101.1893713483,11.811024,0.223694,0.21823819596,0,0,-2.23694,238.7, 1.6, 1.7,0,0,1024,1024,1246,1024,0,0,34,0,242.3,-1.2,0,98,,,,,,,16.79,78.08,101.1893713483,11.811024,6,P-GPS,
14200,2022-05-13 16:28:26,-34.4376627711771,-59.0521549839333,12.467192,,,101.8455393483,13.12336,0,0.12595636886,1.22066276872,17,10,23.928,101.8455393483,12.467192,0.223694,0.21823819596,0,0,-2.23694,238.6, 1.5, 1.7,0,0,1024,1024,1246,1024,0,0,34,0,242.3,-1.2,0,98,,,,,,,16.79,78.08,101.8455393483,12.467192,6,P-GPS,
14300,2022-05-13 16:28:26,-34.4376627841735,-59.0521549768475,12.795276,,,102.1736233483,13.451444,0,0.129482943776,1.22586290012,17,10,23.928,102.1736233483,12.795276,0.223694,0.21823819596,0,0,-2.23694,238.7, 1.4, 1.7,0,0,1024,1024,1246,1024,0,0,34,0,242.3,-1.2,0,98,,,,,,,16.79,78.08,102.1736233483,12.795276,6,P-GPS,
14400,2022-05-13 16:28:26,-34.4376627827693,-59.0521549479433,13.12336,,,102.5017073483,13.779528,0,0.12596457096,1.23457353032,17,10,23.928,102.5017073483,13.12336,0.223694,0.21823819596,0,0,-2.23694,238.6, 1.3, 1.8,0,0,1024,1024,1246,1024,0,0,34,0,242.3,-1.2,0,98,,,,,,,16.79,78.08,102.5017073483,13.12336,6,P-GPS,
14500,2022-05-13 16:28:26,-34.4376627938297,-59.0521549428793,13.451444,,,102.8297913483,14.107612,0,0.129329728548,1.23888783492,17,10,23.928,102.8297913483,13.451444,0.223694,0.21823819596,0,0,-2.23694,238.6, 1.4, 1.8,0,0,1024,1024,1250,1024,0,0,34,0,242.3,-1.2,0,98,,,,,,,16.79,78.08,102.8297913483,13.451444,6,P-GPS,
14600,2022-05-13 16:28:26,-34.4376628054763,-59.0521549416056,13.779528,,,103.1578753483,14.435696,0,0.133278875656,1.24315292692,17,10,23.928,103.1578753483,13.779528,0.223694,0.21823819596,0,0,-2.23694,238.6, 1.5, 1.8,0,0,1024,1024,1261,1024,0,0,36,0,242.3,-1.2,0,98,,,,,,,16.79,78.08,103.1578753483,13.779528,6,P-GPS,
14700,2022-05-13 16:28:26,-34.4376628238305,-59.0521549002921,14.107612,,,103.4859593483,14.76378,0,0.136813980756,1.25727366228,17,10,23.928,103.4859593483,14.107612,0.223694,0.21823819596,0,0,-2.23694,238.6, 1.5, 1.7,0,0,1024,1024,1284,1024,0,0,39,0,242.3,-1.2,0,98,,,,,,,16.79,78.08,103.4859593483,14.107612,6,P-GPS,
14800,2022-05-13 16:28:26,-34.4376628533089,-59.0521548944779,14.435696,,,103.8140433483,15.419948,0,0.147090555888,1.26817261276,17,10,23.928,103.8140433483,14.435696,0.223694,0.21823819596,0,0,-2.23694,238.6, 1.5, 1.7,0,0,1024,1024,1301,1024,0,0,42,0,242.3,-1.2,0,98,,,,,,,16.79,78.08,103.8140433483,14.435696,6,P-GPS,
14900,2022-05-13 16:28:26,-34.4376628687967,-59.0521548915176,14.76378,,,104.1421273483,15.748032,0,0.152528548188,1.27389111688,17,10,23.94,104.1421273483,14.76378,0.223694,0.21823819596,0,0,-2.23694,238.6, 1.5, 1.6,0,0,1024,1024,1309,1024,0,0,43,0,242.3,-1.2,0,98,,,,,,,16.678,78.08,104.1421273483,14.76378,6,P-GPS,
15000,2022-05-13 16:28:26,-34.437662883431,-59.0521548914747,15.091864,,,104.4702113483,16.076116,0,0.15780512316,1.2792323244,18,10,23.94,104.4702113483,15.091864,0.223694,0.21823819596,0,0,-2.460634,238.6, 1.6, 1.5,0,0,1024,1024,1309,1024,0,0,43,0,242.3,-1.2,0,98,,,,,,,16.678,78.08,104.4702113483,15.091864,6,P-GPS,
15100,2022-05-13 16:28:26,-34.437662882259,-59.0521548657572,15.419948,,,104.7982953483,16.4042,0,0.156424873772,1.28698166848,18,10,23.94,104.7982953483,15.419948,0.223694,0.21823819596,0,0,-2.684328,238.6, 1.6, 1.5,0,0,1024,1024,1309,1024,0,0,43,0,242.3,-1.2,0,98,,,,,,,16.678,78.08,104.7982953483,15.419948,6,P-GPS,
15200,2022-05-13 16:28:27,-34.4376629030276,-59.0521548576399,15.748032,,,105.1263793483,17.060368,0,0.163752957996,1.29494098632,18,10,23.94,105.1263793483,15.748032,0.223694,0.21823819596,0,0,-2.908022,238.7, 1.5, 1.6,0,0,1024,1024,1313,1024,0,0,44,0,242.3,-1.2,0,98,,,,,,,16.678,78.08,105.1263793483,15.748032,6,P-GPS,
15300,2022-05-13 16:28:27,-34.437662919679,-59.0521548303858,16.4042,,,105.7825473483,17.388452,0,0.169374021168,1.30514767956,18,10,23.94,105.7825473483,16.4042,0.223694,0.21823819596,0,0,-2.908022,238.7, 1.4, 1.8,0,0,1024,1024,1323,1024,0,0,45,0,242.3,-1.2,0,98,,,,,,,16.678,78.08,105.7825473483,16.4042,6,P-GPS,
15400,2022-05-13 16:28:27,-34.4376629235682,-59.0521547718713,16.732284,,,106.1106313483,17.716536,0,0.171193903116,1.32281172212,18,10,23.94,106.1106313483,16.732284,0.223694,0.21823819596,0,0,-3.131716,238.7, 1.2, 1.9,0,0,1024,1024,1324,1024,0,0,45,0,242.3,-1.2,0,98,,,,,,,16.678,78.08,106.1106313483,16.732284,6,P-GPS,
15500,2022-05-13 16:28:27,-34.437662919682,-59.0521547451111,17.388452,,,106.7667993483,18.372704,0,0.170571527768,1.33099085624,18,10,23.94,106.7667993483,17.388452,0.223694,0.21823819596,0,0,-3.131716,238.7, 1.2, 1.8,0,0,1024,1024,1325,1024,0,0,46,0,242.3,-1.2,0,98,,,,,,,16.678,78.08,106.7667993483,17.388452,6,P-GPS,
15600,2022-05-13 16:28:27,-34.4376629102927,-59.0521547187573,17.716536,,,107.0948833483,18.700788,0,0.168340556568,1.33962602712,18,10,23.94,107.0948833483,17.716536,0.223694,0.21823819596,0,0,-3.35541,238.7, 1.1, 1.8,0,0,1024,1024,1337,1024,0,0,47,0,242.3,-1.2,0,98,,,,,,,16.678,78.08,107.0948833483,17.716536,6,P-GPS,
15700,2022-05-13 16:28:27,-34.4376629131773,-59.0521546908559,18.372704,,,107.7510513483,19.356956,0,0.170999677388,1.34809059432,18,10,23.94,107.7510513483,18.372704,0.223694,0.21823819596,0,0,-3.35541,238.8, 1, 1.6,0,0,1024,1024,1362,1024,0,0,51,0,242.3,-1.2,0,98,,,,,,,16.678,78.08,107.7510513483,18.372704,6,P-GPS,
15800,2022-05-13 16:28:27,-34.4376628935774,-59.0521546241399,18.700788,,,108.0791353483,20.013124,0,0.169695215404,1.36939965012,18,10,23.94,108.0791353483,18.700788,0.223694,0.21823819596,0,0,-3.579104,238.8, 0.9, 1.6,0,0,1024,1024,1363,1024,0,0,51,0,242.3,-1.2,0,98,,,,,,,16.678,78.08,108.0791353483,18.700788,6,P-GPS,
15900,2022-05-13 16:28:27,-34.4376628959147,-59.0521545816898,19.356956,,,108.7353033483,20.341208,0,0.175194231328,1.3822014878,18,10,23.964,108.7353033483,19.356956,0.223694,0.21823819596,0,0,-3.579104,238.8, 0.8, 1.6,0,0,1024,1024,1363,1024,0,0,51,0,242.3,-1.2,0,98,,,,,,,16.526,78.26,108.7353033483,19.356956,6,P-GPS,
16000,2022-05-13 16:28:27,-34.4376629006439,-59.0521545418118,20.013124,,,109.3914713483,20.997376,0,0.181858929704,1.3943241916,18,10,23.964,109.3914713483,20.013124,0.223694,0.21823819596,0,0,-3.802798,238.8, 0.8, 1.7,0,0,1024,1024,1366,1024,0,0,52,0,242.3,-1.2,0,98,,,,,,,16.526,78.26,109.3914713483,20.013124,6,P-GPS,
16100,2022-05-13 16:28:28,-34.4376628762023,-59.0521544844866,20.341208,,,109.7195553483,21.653544,0,0.18270341792,1.41374348356,18,10,23.964,109.7195553483,20.341208,0.223694,0.21823819596,0,0,-4.026492,238.8, 0.8, 1.8,0,0,1024,1024,1441,1024,0,0,63,0,242.3,-1.2,0,98,,,,,,,16.526,78.26,109.7195553483,20.341208,6,P-GPS,
16200,2022-05-13 16:28:28,-34.4376628803447,-59.0521544658322,20.997376,,,110.3757233483,22.309712,0,0.18706037344,1.41955713204,18,10,23.964,110.3757233483,20.997376,0.223694,0.21823819596,0,0,-4.026492,238.8, 1, 1.8,0,0,1024,1024,1448,1024,0,0,64,0,242.3,-1.2,0,98,,,,,,,16.526,78.26,110.3757233483,20.997376,6,P-GPS,
16300,2022-05-13 16:28:28,-34.4376628838873,-59.052154455725,21.653544,,,111.0318913483,22.96588,0,0.189843510012,1.42286093792,18,10,23.964,111.0318913483,21.653544,0.223694,0.21823819596,0,0,-4.250186,238.7, 1.2, 1.7,0,0,1024,1024,1451,1024,0,0,65,0,242.3,-1.2,0,98,,,,,,,16.526,78.26,111.0318913483,21.653544,6,P-GPS,
16400,2022-05-13 16:28:28,-34.4376628875058,-59.0521544454493,22.309712,,,111.6880593483,23.622048,0,0.192694559972,1.42622379892,18,10,23.964,111.6880593483,22.309712,0.223694,0.21823819596,0,0,-4.697574,238.7, 1.3, 1.7,0,0,1024,1024,1470,1024,0,0,68,0,242.3,-1.2,0,98,,,,,,,16.526,78.26,111.6880593483,22.309712,6,P-GPS,
16500,2022-05-13 16:28:28,-34.4376628667234,-59.0521544238992,22.96588,,,112.3442273483,24.278216,0,0.190472775124,1.43620083336,18,10,23.964,112.3442273483,22.96588,0.223694,0.21823819596,0,0,-5.144962,238.7, 1.1, 1.9,0,0,1024,1024,1512,1024,0,0,74,0,242.3,-1.2,0,98,,,,,,,16.526,78.26,112.3442273483,22.96588,6,P-GPS,
16600,2022-05-13 16:28:28,-34.4376628706184,-59.0521544143349,23.950132,,,113.3284793483,25.262468,0,0.193370741096,1.43940949488,18,10,23.964,113.3284793483,23.950132,0.223694,0.21823819596,0,0,-5.368656,238.6, 0.8, 2.1,0,0,1024,1024,1478,1024,0,0,69,0,242.3,-1.2,0,98,,,,,,,16.526,78.26,113.3284793483,23.950132,6,P-GPS,
16700,2022-05-13 16:28:28,-34.4376628753012,-59.0521544061088,24.6063,,,113.9846473483,25.918636,0,0.196250334364,1.44241802516,18,10,23.964,113.9846473483,24.6063,0.223694,0.21823819596,0,0,-6.039738,238.6, 0.7, 2.1,0,0,1024,1024,1451,1024,0,0,65,0,242.3,-1.2,0,98,,,,,,,16.526,78.26,113.9846473483,24.6063,6,P-GPS,
16800,2022-05-13 16:28:28,-34.4376628759461,-59.0521543970347,25.590552,,,114.9688993483,26.902888,0,0.198151909228,1.44515752656,18,10,23.964,114.9688993483,25.590552,0.223694,0.21823819596,0,0,-6.039738,238.6, 0.8, 2,0,0,1024,1024,1451,1024,0,0,65,0,242.3,-1.2,0,98,,,,,,,16.526,78.26,114.9688993483,25.590552,6,P-GPS,
16900,2022-05-13 16:28:28,-34.4376628858352,-59.052154406027,26.574804,,,115.9531513483,27.88714,0,0.199278549684,1.44966868156,18,10,23.838,115.9531513483,26.574804,0.223694,0.21823819596,0,0,-6.039738,238.7, 1.1, 1.9,0,0,1024,1024,1452,1024,0,0,65,0,242.3,-1.2,0,98,,,,,,,18.014,78.26,115.9531513483,26.574804,6,P-GPS,
17000,2022-05-13 16:28:28,-34.4376628961765,-59.0521544182886,27.559056,,,116.9374033483,28.871392,0,0.200045281992,1.45494427228,18,10,23.838,116.9374033483,27.559056,0.223694,0.21823819596,0,0,-6.039738,238.8, 1.3, 1.8,0,0,1024,1024,1457,1024,0,0,66,0,242.3,-1.2,0,98,,,,,,,18.014,78.26,116.9374033483,27.559056,6,P-GPS,
17100,2022-05-13 16:28:29,-34.437662885458,-59.0521544221578,28.543308,,,117.9216553483,29.855644,0,0.196214901292,1.45902563724,18,10,23.838,117.9216553483,28.543308,0.223694,0.21823819596,0,0,-6.039738,238.9, 1.4, 2,0,0,1024,1024,1458,1024,0,0,66,0,242.3,-1.2,0,98,,,,,,,18.014,78.26,117.9216553483,28.543308,6,P-GPS,
17200,2022-05-13 16:28:29,-34.4376628415977,-59.052154378812,29.199476,,,118.5778233483,30.511812,0,0.192312342112,1.47966868252,18,10,23.838,118.5778233483,29.199476,0.223694,0.21823819596,0,0,-6.039738,238.9, 1.2, 2,0,0,1024,1024,1456,1024,0,0,65,0,242.3,-1.2,0,98,,,,,,,18.014,78.26,118.5778233483,29.199476,6,P-GPS,
17300,2022-05-13 16:28:29,-34.437662831388,-59.0521543928653,30.183728,,,119.5620753483,31.496064,0,0.186705714636,1.48530516564,18,10,23.838,119.5620753483,30.183728,0.223694,0.21823819596,0,0,-6.039738,238.9, 1.1, 1.8,0,0,1024,1024,1453,1024,0,0,65,0,242.3,-1.2,0,98,,,,,,,18.014,78.26,119.5620753483,30.183728,6,P-GPS,
17400,2022-05-13 16:28:29,-34.4376628233742,-59.0521544123605,31.16798,,,120.5463273483,32.152232,0,0.180591213128,1.49186028396,18,10,23.838,120.5463273483,31.16798,0.223694,0.21823819596,0,0,-6.039738,238.9, 1, 1.8,0,0,1024,1024,1453,1024,0,0,65,0,242.3,-1.2,0,98,,,,,,,18.014,78.26,120.5463273483,31.16798,6,P-GPS,
17500,2022-05-13 16:28:29,-34.4376628221056,-59.0521544075652,32.152232,,,121.5305793483,33.136484,0,0.181218509736,1.49337603204,18,10,23.838,121.5305793483,32.152232,0.223694,0.21823819596,0,0,-6.039738,238.8, 0.9, 1.6,0,0,1024,1024,1449,1024,0,0,64,0,242.3,-1.2,0,98,,,,,,,18.014,78.26,121.5305793483,32.152232,6,P-GPS,
17600,2022-05-13 16:28:29,-34.4376628298712,-59.0521544170953,33.136484,,,122.5148313483,33.792652,0,0.181417984808,1.49740490356,18,10,23.838,122.5148313483,33.136484,0.223694,0.21823819596,0,0,-6.039738,238.8, 1, 1.5,0,0,1024,1024,1448,1024,0,0,64,0,242.3,-1.2,0,98,,,,,,,18.014,78.26,122.5148313483,33.136484,6,P-GPS,
17700,2022-05-13 16:28:29,-34.4376628381157,-59.0521544267993,33.792652,,,123.1709993483,34.776904,0,0.181807092432,1.50159781708,18,10,23.838,123.1709993483,33.792652,0.223694,0.21823819596,0,0,-6.039738,238.8, 0.9, 1.6,0,0,1024,1024,1441,1024,0,0,63,0,242.3,-1.2,0,98,,,,,,,18.014,78.26,123.1709993483,33.792652,6,P-GPS,
17800,2022-05-13 16:28:29,-34.4376628538507,-59.0521544322001,34.776904,,,124.1552513483,35.761156,0,0.185237210652,1.50756566504,18,10,23.838,124.1552513483,34.776904,0.223694,0.21823819596,0,0,-6.039738,238.8, 1.1, 1.9,0,0,1024,1024,1439,1024,0,0,63,0,242.3,-1.2,0,98,,,,,,,18.014,78.26,124.1552513483,34.776904,6,P-GPS,
17900,2022-05-13 16:28:29,-34.4376628571822,-59.0521544182981,35.761156,,,125.1395033483,36.417324,0,0.18880249948,1.51192262056,18,10,23.772,125.1395033483,35.761156,0.223694,0.21823819596,0,0,-5.816044,238.8, 1.3, 2.2,0,0,1024,1024,1439,1024,0,0,63,0,242.3,-1.2,0,98,,,,,,,20.5,78.26,125.1395033483,35.761156,6,P-GPS,
18000,2022-05-13 16:28:29,-34.4376628806268,-59.052154419632,36.417324,,,125.7956713483,37.401576,0,0.195270019372,1.52048561296,18,10,23.772,125.7956713483,36.417324,0.223694,0.21823819596,0,0,-5.816044,238.9, 1.3, 2.3,0,0,1024,1024,1439,1024,0,0,63,0,242.3,-1.2,0,98,,,,,,,20.5,78.26,125.7956713483,36.417324,6,P-GPS,
18100,2022-05-13 16:28:30,-34.4376629029033,-59.0521544158476,37.401576,,,126.7799233483,38.057744,0,0.202456371308,1.5286909938,18,10,23.772,126.7799233483,37.401576,0.223694,0.21823819596,0,0,-5.816044,238.9, 1.2, 2.3,0,0,1024,1024,1440,1024,0,0,63,0,242.3,-1.2,0,98,,,,,,,20.5,78.26,126.7799233483,37.401576,6,P-GPS,
18200,2022-05-13 16:28:30,-34.437662917632,-59.0521543957928,38.385828,,,127.7641753483,38.057744,0,0.210366148464,1.53677170272,18,10,23.772,127.7641753483,38.385828,0.223694,0.21823819596,0,0,-5.816044,238.9, 1, 2.2,0,0,1024,1024,1440,1024,0,0,63,0,242.3,-1.2,0,98,,,,,,,20.5,78.26,127.7641753483,38.385828,6,P-GPS,
18300,2022-05-13 16:28:30,-34.4376629379916,-59.0521543939924,39.041996,,,128.4203433483,38.057744,0,0.216679140792,1.54421920952,18,10,23.772,128.4203433483,39.041996,0.223694,0.21823819596,0,0,-5.816044,238.9, 1, 2.3,0,0,1024,1024,1440,1024,0,0,63,0,242.3,-1.2,0,98,,,,,,,20.5,78.26,128.4203433483,39.041996,6,P-GPS,
18400,2022-05-13 16:28:30,-34.4376629572372,-59.0521543959791,40.026248,,,129.4045953483,38.057744,0,0.222080715768,1.55126645384,18,10,23.772,129.4045953483,40.026248,0.223694,0.222080715768,0,0,-5.59235,238.9, 1.1, 2.2,0,0,1024,1024,1440,1024,0,0,63,0,242.3,-1.2,0,98,,,,,,,20.5,78.26,129.4045953483,40.026248,6,P-GPS,
18500,2022-05-13 16:28:30,-34.4376629836863,-59.0521543815531,41.0105,,,130.3888473483,38.057744,0,0.232499679356,1.56184716284,18,10,23.772,130.3888473483,41.0105,0.223694,0.232499679356,0,0,-5.59235,238.9, 1.2, 2.1,0,0,1024,1024,1440,1024,0,0,63,0,242.3,-1.2,0,98,,,,,,,20.5,78.26,130.3888473483,41.0105,6,P-GPS,
18600,2022-05-13 16:28:30,-34.437663004851,-59.0521543466467,41.666668,,,131.0450153483,38.057744,0,0.244817265052,1.574885221,18,10,23.772,131.0450153483,41.666668,0.223694,0.244817265052,0,0,-5.59235,238.9, 1.2, 2.1,0,0,1024,1024,1440,1024,0,0,63,0,242.3,-1.2,0,98,,,,,,,20.5,78.26,131.0450153483,41.666668,6,P-GPS,
18700,2022-05-13 16:28:30,-34.4376630247517,-59.0521543204195,42.65092,,,132.0292673483,38.057744,0,0.255304470112,1.58561028696,18,10,23.772,132.0292673483,42.65092,0.223694,0.255304470112,0,0,-5.59235,238.8, 1, 2,0,0,1024,1024,1440,1024,0,0,63,0,242.3,-1.2,0,98,,,,,,,20.5,78.26,132.0292673483,42.65092,6,P-GPS,
18800,2022-05-13 16:28:30,-34.4376630469446,-59.0521542829143,43.307088,,,132.6854353483,38.057744,0,0.268493446912,1.59949808268,18,10,23.772,132.6854353483,43.307088,0.223694,0.268493446912,0,0,-5.59235,238.7, 1, 2.1,0,0,1024,1024,1440,1024,0,0,63,0,242.3,-1.2,0,98,,,,,,,20.5,78.26,132.6854353483,43.307088,6,P-GPS,
18900,2022-05-13 16:28:30,-34.4376630516335,-59.0521542233166,44.29134,,,133.6696873483,38.057744,0,0.280863197964,1.61751317512,18,10,23.778,133.6696873483,44.29134,0.223694,0.280863197964,0,0,-5.59235,238.6, 1.2, 2.4,0,0,1024,1024,1439,1024,0,0,63,0,242.3,-1.2,0,98,,,,,,,17.848,78.26,133.6696873483,44.29134,6,P-GPS,
19000,2022-05-13 16:28:30,-34.4376630762488,-59.0521542008837,44.947508,,,134.3258553483,38.057744,0,0.292089248192,1.62874677128,18,10,23.778,134.3258553483,44.947508,0.223694,0.292089248192,0,0,-5.59235,238.6, 1.3, 2.6,0,0,1024,1024,1436,1024,0,0,62,0,242.3,-1.2,0,98,,,,,,,17.848,78.26,134.3258553483,44.947508,6,P-GPS,
